Time,ID,Type,Status,Lat,Lon,Alt,Roll,Pitch,Yaw
0.0100,1,1,0,37.46641507,126.44991077,2450.7108,0,0.0000,-0.0000
0.0100,2,1,0,37.46637355,126.45013312,2452.0968,0,-0.0001,0.0000
0.0100,3,1,0,37.46625321,126.45010222,2452.4539,0,-0.0001,-0.0000
0.0200,1,1,0,37.46643308,126.44991065,2450.7066,0,0.0000,-0.0000
0.0200,2,1,0,37.46639157,126.45013299,2452.0926,0,-0.0001,0.0000
0.0200,3,1,0,37.46627123,126.45010209,2452.4497,0,-0.0001,-0.0000
0.0300,1,1,0,37.46645110,126.44991052,2450.7025,0,0.0000,-0.0000
0.0300,2,1,0,37.46640958,126.45013287,2452.0885,0,-0.0001,0.0000
0.0300,3,1,0,37.46628924,126.45010196,2452.4455,0,-0.0001,-0.0000
0.0400,1,1,0,37.46646911,126.44991039,2450.6983,0,0.0000,-0.0000
0.0400,2,1,0,37.46642759,126.45013274,2452.0843,0,-0.0001,0.0000
0.0400,3,1,0,37.46630725,126.45010184,2452.4414,0,-0.0001,-0.0000
0.0500,1,1,0,37.46648712,126.44991027,2450.6942,0,0.0000,-0.0000
0.0500,2,1,0,37.46644561,126.45013262,2452.0801,0,-0.0001,0.0000
0.0500,3,1,0,37.46632526,126.45010171,2452.4372,0,-0.0001,-0.0000
0.0600,1,1,0,37.46650514,126.44991014,2450.6900,0,0.0000,-0.0000
0.0600,2,1,0,37.46646362,126.45013249,2452.0760,0,-0.0001,0.0000
0.0600,3,1,0,37.46634328,126.45010158,2452.4331,0,-0.0001,-0.0000
0.0700,1,1,0,37.46652315,126.44991001,2450.6859,0,0.0000,-0.0000
0.0700,2,1,0,37.46648163,126.45013236,2452.0718,0,-0.0001,0.0000
0.0700,3,1,0,37.46636129,126.45010146,2452.4289,0,-0.0001,-0.0000
0.0800,1,1,0,37.46654116,126.44990989,2450.6818,0,0.0000,-0.0000
0.0800,2,1,0,37.46649965,126.45013224,2452.0677,0,-0.0001,0.0000
0.0800,3,1,0,37.46637930,126.45010133,2452.4248,0,-0.0001,-0.0000
0.0900,1,1,0,37.46655918,126.44990976,2450.6776,0,0.0000,-0.0000
0.0900,2,1,0,37.46651766,126.45013211,2452.0635,0,-0.0001,0.0000
0.0900,3,1,0,37.46639732,126.45010121,2452.4206,0,-0.0001,-0.0000
0.1000,1,1,0,37.46657719,126.44990964,2450.6735,0,0.0000,-0.0000
0.1000,2,1,0,37.46653567,126.45013198,2452.0594,0,-0.0001,0.0000
0.1000,3,1,0,37.46641533,126.45010108,2452.4165,0,-0.0001,-0.0000
0.1100,1,1,0,37.46659520,126.44990951,2450.6693,0,0.0000,-0.0000
0.1100,2,1,0,37.46655368,126.45013186,2452.0553,0,-0.0001,0.0000
0.1100,3,1,0,37.46643334,126.45010095,2452.4123,0,-0.0001,-0.0000
0.1200,1,1,0,37.46661321,126.44990938,2450.6652,0,0.0000,-0.0000
0.1200,2,1,0,37.46657170,126.45013173,2452.0511,0,-0.0001,0.0000
0.1200,3,1,0,37.46645136,126.45010083,2452.4082,0,-0.0001,-0.0000
0.1300,1,1,0,37.46663123,126.44990926,2450.6611,0,0.0000,-0.0000
0.1300,2,1,0,37.46658971,126.45013161,2452.0470,0,-0.0001,0.0000
0.1300,3,1,0,37.46646937,126.45010070,2452.4040,0,-0.0001,-0.0000
0.1400,1,1,0,37.46664924,126.44990913,2450.6569,0,0.0000,-0.0000
0.1400,2,1,0,37.46660772,126.45013148,2452.0428,0,-0.0001,0.0000
0.1400,3,1,0,37.46648738,126.45010057,2452.3999,0,-0.0001,-0.0000
0.1500,1,1,0,37.46666725,126.44990900,2450.6528,0,0.0000,-0.0000
0.1500,2,1,0,37.46662574,126.45013135,2452.0387,0,-0.0001,0.0000
0.1500,3,1,0,37.46650539,126.45010045,2452.3957,0,-0.0001,-0.0000
0.1600,1,1,0,37.46668527,126.44990888,2450.6486,0,0.0000,-0.0000
0.1600,2,1,0,37.46664375,126.45013123,2452.0345,0,-0.0001,0.0000
0.1600,3,1,0,37.46652341,126.45010032,2452.3916,0,-0.0001,-0.0000
0.1700,1,1,0,37.46670328,126.44990875,2450.6445,0,0.0000,-0.0000
0.1700,2,1,0,37.46666176,126.45013110,2452.0304,0,-0.0001,0.0000
0.1700,3,1,0,37.46654142,126.45010019,2452.3874,0,-0.0001,-0.0000
0.1800,1,1,0,37.46672129,126.44990862,2450.6404,0,0.0000,-0.0000
0.1800,2,1,0,37.46667978,126.45013097,2452.0262,0,-0.0001,0.0000
0.1800,3,1,0,37.46655943,126.45010007,2452.3833,0,-0.0001,-0.0000
0.1900,1,1,0,37.46673931,126.44990850,2450.6362,0,0.0000,-0.0000
0.1900,2,1,0,37.46669779,126.45013085,2452.0221,0,-0.0001,0.0000
0.1900,3,1,0,37.46657745,126.45009994,2452.3791,0,-0.0001,-0.0000
0.2000,1,1,0,37.46675732,126.44990837,2450.6321,0,0.0000,-0.0000
0.2000,2,1,0,37.46671580,126.45013072,2452.0180,0,-0.0001,0.0000
0.2000,3,1,0,37.46659546,126.45009982,2452.3750,0,-0.0001,-0.0000
0.2100,1,1,0,37.46677533,126.44990825,2450.6280,0,0.0000,-0.0000
0.2100,2,1,0,37.46673381,126.45013060,2452.0138,0,-0.0001,0.0000
0.2100,3,1,0,37.46661347,126.45009969,2452.3708,0,-0.0001,-0.0000
0.2200,1,1,0,37.46679334,126.44990812,2450.6238,0,0.0000,-0.0000
0.2200,2,1,0,37.46675183,126.45013047,2452.0097,0,-0.0001,0.0000
0.2200,3,1,0,37.46663148,126.45009956,2452.3667,0,-0.0001,-0.0000
0.2300,1,1,0,37.46681136,126.44990799,2450.6197,0,0.0000,-0.0000
0.2300,2,1,0,37.46676984,126.45013034,2452.0055,0,-0.0001,0.0000
0.2300,3,1,0,37.46664950,126.45009944,2452.3626,0,-0.0001,-0.0000
0.2400,1,1,0,37.46682937,126.44990787,2450.6156,0,0.0000,-0.0000
0.2400,2,1,0,37.46678785,126.45013022,2452.0014,0,-0.0001,0.0000
0.2400,3,1,0,37.46666751,126.45009931,2452.3584,0,-0.0001,-0.0000
0.2500,1,1,0,37.46684738,126.44990774,2450.6114,0,0.0000,-0.0000
0.2500,2,1,0,37.46680587,126.45013009,2451.9973,0,-0.0001,0.0000
0.2500,3,1,0,37.46668552,126.45009918,2452.3543,0,-0.0001,-0.0000
0.2600,1,1,0,37.46686540,126.44990761,2450.6073,0,0.0000,-0.0000
0.2600,2,1,0,37.46682388,126.45012996,2451.9931,0,-0.0001,0.0000
0.2600,3,1,0,37.46670354,126.45009906,2452.3501,0,-0.0001,-0.0000
0.2700,1,1,0,37.46688341,126.44990749,2450.6032,0,0.0000,-0.0000
0.2700,2,1,0,37.46684189,126.45012984,2451.9890,0,-0.0001,0.0000
0.2700,3,1,0,37.46672155,126.45009893,2452.3460,0,-0.0001,-0.0000
0.2800,1,1,0,37.46690142,126.44990736,2450.5990,0,0.0000,-0.0000
0.2800,2,1,0,37.46685990,126.45012971,2451.9848,0,-0.0001,0.0000
0.2800,3,1,0,37.46673956,126.45009881,2452.3418,0,-0.0001,-0.0000
0.2900,1,1,0,37.46691943,126.44990724,2450.5949,0,0.0000,-0.0000
0.2900,2,1,0,37.46687792,126.45012959,2451.9807,0,-0.0001,0.0000
0.2900,3,1,0,37.46675758,126.45009868,2452.3377,0,-0.0001,-0.0000
0.3000,1,1,0,37.46693745,126.44990711,2450.5908,0,0.0000,-0.0000
0.3000,2,1,0,37.46689593,126.45012946,2451.9766,0,-0.0001,0.0000
0.3000,3,1,0,37.46677559,126.45009855,2452.3336,0,-0.0001,-0.0000
0.3100,1,1,0,37.46695546,126.44990698,2450.5867,0,0.0000,-0.0000
0.3100,2,1,0,37.46691394,126.45012933,2451.9724,0,-0.0001,0.0000
0.3100,3,1,0,37.46679360,126.45009843,2452.3294,0,-0.0001,-0.0000
0.3200,1,1,0,37.46697347,126.44990686,2450.5825,0,0.0000,-0.0000
0.3200,2,1,0,37.46693196,126.45012921,2451.9683,0,-0.0001,0.0000
0.3200,3,1,0,37.46681161,126.45009830,2452.3253,0,-0.0001,-0.0000
0.3300,1,1,0,37.46699149,126.44990673,2450.5784,0,0.0000,-0.0000
0.3300,2,1,0,37.46694997,126.45012908,2451.9642,0,-0.0001,0.0000
0.3300,3,1,0,37.46682963,126.45009817,2452.3212,0,-0.0001,-0.0000
0.3400,1,1,0,37.46700950,126.44990660,2450.5743,0,0.0000,-0.0000
0.3400,2,1,0,37.46696798,126.45012895,2451.9600,0,-0.0001,0.0000
0.3400,3,1,0,37.46684764,126.45009805,2452.3170,0,-0.0001,-0.0000
0.3500,1,1,0,37.46702751,126.44990648,2450.5702,0,0.0000,-0.0000
0.3500,2,1,0,37.46698600,126.45012883,2451.9559,0,-0.0001,0.0000
0.3500,3,1,0,37.46686565,126.45009792,2452.3129,0,-0.0001,-0.0000
0.3600,1,1,0,37.46704553,126.44990635,2450.5660,0,0.0000,-0.0000
0.3600,2,1,0,37.46700401,126.45012870,2451.9518,0,-0.0001,0.0000
0.3600,3,1,0,37.46688367,126.45009780,2452.3088,0,-0.0001,-0.0000
0.3700,1,1,0,37.46706354,126.44990622,2450.5619,0,0.0000,-0.0000
0.3700,2,1,0,37.46702202,126.45012858,2451.9476,0,-0.0001,0.0000
0.3700,3,1,0,37.46690168,126.45009767,2452.3046,0,-0.0001,-0.0000
0.3800,1,1,0,37.46708155,126.44990610,2450.5578,0,0.0000,-0.0000
0.3800,2,1,0,37.46704003,126.45012845,2451.9435,0,-0.0001,0.0000
0.3800,3,1,0,37.46691969,126.45009754,2452.3005,0,-0.0001,-0.0000
0.3900,1,1,0,37.46709956,126.44990597,2450.5537,0,0.0000,-0.0000
0.3900,2,1,0,37.46705805,126.45012832,2451.9394,0,-0.0001,0.0000
0.3900,3,1,0,37.46693770,126.45009742,2452.2963,0,-0.0001,-0.0000
0.4000,1,1,0,37.46711758,126.44990585,2450.5496,0,0.0000,-0.0000
0.4000,2,1,0,37.46707606,126.45012820,2451.9353,0,-0.0001,0.0000
0.4000,3,1,0,37.46695572,126.45009729,2452.2922,0,-0.0001,-0.0000
0.4100,1,1,0,37.46713559,126.44990572,2450.5454,0,0.0000,-0.0000
0.4100,2,1,0,37.46709407,126.45012807,2451.9311,0,-0.0001,0.0000
0.4100,3,1,0,37.46697373,126.45009716,2452.2881,0,-0.0001,-0.0000
0.4200,1,1,0,37.46715360,126.44990559,2450.5413,0,0.0000,-0.0000
0.4200,2,1,0,37.46711209,126.45012794,2451.9270,0,-0.0001,0.0000
0.4200,3,1,0,37.46699174,126.45009704,2452.2840,0,-0.0001,-0.0000
0.4300,1,1,0,37.46717162,126.44990547,2450.5372,0,0.0000,-0.0000
0.4300,2,1,0,37.46713010,126.45012782,2451.9229,0,-0.0001,0.0000
0.4300,3,1,0,37.46700976,126.45009691,2452.2798,0,-0.0001,-0.0000
0.4400,1,1,0,37.46718963,126.44990534,2450.5331,0,0.0000,-0.0000
0.4400,2,1,0,37.46714811,126.45012769,2451.9187,0,-0.0001,0.0000
0.4400,3,1,0,37.46702777,126.45009679,2452.2757,0,-0.0001,-0.0000
0.4500,1,1,0,37.46720764,126.44990521,2450.5290,0,0.0000,-0.0000
0.4500,2,1,0,37.46716613,126.45012756,2451.9146,0,-0.0001,0.0000
0.4500,3,1,0,37.46704578,126.45009666,2452.2716,0,-0.0001,-0.0000
0.4600,1,1,0,37.46722566,126.44990509,2450.5248,0,0.0000,-0.0000
0.4600,2,1,0,37.46718414,126.45012744,2451.9105,0,-0.0001,0.0000
0.4600,3,1,0,37.46706380,126.45009653,2452.2674,0,-0.0001,-0.0000
0.4700,1,1,0,37.46724367,126.44990496,2450.5207,0,0.0000,-0.0000
0.4700,2,1,0,37.46720215,126.45012731,2451.9064,0,-0.0001,0.0000
0.4700,3,1,0,37.46708181,126.45009641,2452.2633,0,-0.0001,-0.0000
0.4800,1,1,0,37.46726168,126.44990484,2450.5166,0,0.0000,-0.0000
0.4800,2,1,0,37.46722016,126.45012719,2451.9022,0,-0.0001,0.0000
0.4800,3,1,0,37.46709982,126.45009628,2452.2592,0,-0.0001,-0.0000
0.4900,1,1,0,37.46727969,126.44990471,2450.5125,0,0.0000,-0.0000
0.4900,2,1,0,37.46723818,126.45012706,2451.8981,0,-0.0001,0.0000
0.4900,3,1,0,37.46711783,126.45009615,2452.2551,0,-0.0001,-0.0000
0.5000,1,1,0,37.46729771,126.44990458,2450.5084,0,0.0000,-0.0000
0.5000,2,1,0,37.46725619,126.45012693,2451.8940,0,-0.0001,0.0000
0.5000,3,1,0,37.46713585,126.45009603,2452.2509,0,-0.0001,-0.0000
0.5100,1,1,0,37.46731572,126.44990446,2450.5043,0,0.0000,-0.0000
0.5100,2,1,0,37.46727420,126.45012681,2451.8899,0,-0.0001,0.0000
0.5100,3,1,0,37.46715386,126.45009590,2452.2468,0,-0.0001,-0.0000
0.5200,1,1,0,37.46733373,126.44990433,2450.5001,0,0.0000,-0.0000
0.5200,2,1,0,37.46729222,126.45012668,2451.8858,0,-0.0001,0.0000
0.5200,3,1,0,37.46717187,126.45009578,2452.2427,0,-0.0001,-0.0000
0.5300,1,1,0,37.46735175,126.44990420,2450.4960,0,0.0000,-0.0000
0.5300,2,1,0,37.46731023,126.45012655,2451.8816,0,-0.0001,0.0000
0.5300,3,1,0,37.46718989,126.45009565,2452.2386,0,-0.0001,-0.0000
0.5400,1,1,0,37.46736976,126.44990408,2450.4919,0,0.0000,-0.0000
0.5400,2,1,0,37.46732824,126.45012643,2451.8775,0,-0.0001,0.0000
0.5400,3,1,0,37.46720790,126.45009552,2452.2344,0,-0.0001,-0.0000
0.5500,1,1,0,37.46738777,126.44990395,2450.4878,0,0.0000,-0.0000
0.5500,2,1,0,37.46734625,126.45012630,2451.8734,0,-0.0001,0.0000
0.5500,3,1,0,37.46722591,126.45009540,2452.2303,0,-0.0001,-0.0000
0.5600,1,1,0,37.46740578,126.44990382,2450.4837,0,0.0000,-0.0000
0.5600,2,1,0,37.46736427,126.45012618,2451.8693,0,-0.0001,0.0000
0.5600,3,1,0,37.46724393,126.45009527,2452.2262,0,-0.0001,-0.0000
0.5700,1,1,0,37.46742380,126.44990370,2450.4796,0,0.0000,-0.0000
0.5700,2,1,0,37.46738228,126.45012605,2451.8652,0,-0.0001,0.0000
0.5700,3,1,0,37.46726194,126.45009514,2452.2221,0,-0.0001,-0.0000
0.5800,1,1,0,37.46744181,126.44990357,2450.4755,0,0.0000,-0.0000
0.5800,2,1,0,37.46740029,126.45012592,2451.8610,0,-0.0001,0.0000
0.5800,3,1,0,37.46727995,126.45009502,2452.2179,0,-0.0001,-0.0000
0.5900,1,1,0,37.46745982,126.44990345,2450.4714,0,0.0000,-0.0000
0.5900,2,1,0,37.46741831,126.45012580,2451.8569,0,-0.0001,0.0000
0.5900,3,1,0,37.46729796,126.45009489,2452.2138,0,-0.0001,-0.0000
0.6000,1,1,0,37.46747784,126.44990332,2450.4673,0,0.0000,-0.0000
0.6000,2,1,0,37.46743632,126.45012567,2451.8528,0,-0.0001,0.0000
0.6000,3,1,0,37.46731598,126.45009477,2452.2097,0,-0.0001,-0.0000
0.6100,1,1,0,37.46749585,126.44990319,2450.4631,0,0.0000,-0.0000
0.6100,2,1,0,37.46745433,126.45012554,2451.8487,0,-0.0001,0.0000
0.6100,3,1,0,37.46733399,126.45009464,2452.2056,0,-0.0001,-0.0000
0.6200,1,1,0,37.46751386,126.44990307,2450.4590,0,0.0000,-0.0000
0.6200,2,1,0,37.46747235,126.45012542,2451.8446,0,-0.0001,0.0000
0.6200,3,1,0,37.46735200,126.45009451,2452.2015,0,-0.0001,-0.0000
0.6300,1,1,0,37.46753188,126.44990294,2450.4549,0,0.0000,-0.0000
0.6300,2,1,0,37.46749036,126.45012529,2451.8405,0,-0.0001,0.0000
0.6300,3,1,0,37.46737002,126.45009439,2452.1973,0,-0.0001,-0.0000
0.6400,1,1,0,37.46754989,126.44990281,2450.4508,0,0.0000,-0.0000
0.6400,2,1,0,37.46750837,126.45012517,2451.8363,0,-0.0001,0.0000
0.6400,3,1,0,37.46738803,126.45009426,2452.1932,0,-0.0001,-0.0000
0.6500,1,1,0,37.46756790,126.44990269,2450.4467,0,0.0000,-0.0000
0.6500,2,1,0,37.46752638,126.45012504,2451.8322,0,-0.0001,0.0000
0.6500,3,1,0,37.46740604,126.45009413,2452.1891,0,-0.0001,-0.0000
0.6600,1,1,0,37.46758591,126.44990256,2450.4426,0,0.0000,-0.0000
0.6600,2,1,0,37.46754440,126.45012491,2451.8281,0,-0.0001,0.0000
0.6600,3,1,0,37.46742405,126.45009401,2452.1850,0,-0.0001,-0.0000
0.6700,1,1,0,37.46760393,126.44990244,2450.4385,0,0.0000,-0.0000
0.6700,2,1,0,37.46756241,126.45012479,2451.8240,0,-0.0001,0.0000
0.6700,3,1,0,37.46744207,126.45009388,2452.1809,0,-0.0001,-0.0000
0.6800,1,1,0,37.46762194,126.44990231,2450.4344,0,0.0000,-0.0000
0.6800,2,1,0,37.46758042,126.45012466,2451.8199,0,-0.0001,0.0000
0.6800,3,1,0,37.46746008,126.45009376,2452.1768,0,-0.0001,-0.0000
0.6900,1,1,0,37.46763995,126.44990218,2450.4303,0,0.0000,-0.0000
0.6900,2,1,0,37.46759844,126.45012453,2451.8158,0,-0.0001,0.0000
0.6900,3,1,0,37.46747809,126.45009363,2452.1726,0,-0.0001,-0.0000
0.7000,1,1,0,37.46765797,126.44990206,2450.4262,0,0.0000,-0.0000
0.7000,2,1,0,37.46761645,126.45012441,2451.8117,0,-0.0001,0.0000
0.7000,3,1,0,37.46749611,126.45009350,2452.1685,0,-0.0001,-0.0000
0.7100,1,1,0,37.46767598,126.44990193,2450.4221,0,0.0000,-0.0000
0.7100,2,1,0,37.46763446,126.45012428,2451.8076,0,-0.0001,0.0000
0.7100,3,1,0,37.46751412,126.45009338,2452.1644,0,-0.0001,-0.0000
0.7200,1,1,0,37.46769399,126.44990180,2450.4180,0,0.0000,-0.0000
0.7200,2,1,0,37.46765247,126.45012416,2451.8035,0,-0.0001,0.0000
0.7200,3,1,0,37.46753213,126.45009325,2452.1603,0,-0.0001,-0.0000
0.7300,1,1,0,37.46771201,126.44990168,2450.4139,0,0.0000,-0.0000
0.7300,2,1,0,37.46767049,126.45012403,2451.7993,0,-0.0001,0.0000
0.7300,3,1,0,37.46755015,126.45009312,2452.1562,0,-0.0001,-0.0000
0.7400,1,1,0,37.46773002,126.44990155,2450.4098,0,0.0000,-0.0000
0.7400,2,1,0,37.46768850,126.45012390,2451.7952,0,-0.0001,0.0000
0.7400,3,1,0,37.46756816,126.45009300,2452.1521,0,-0.0001,-0.0000
0.7500,1,1,0,37.46774803,126.44990142,2450.4057,0,0.0000,-0.0000
0.7500,2,1,0,37.46770651,126.45012378,2451.7911,0,-0.0001,0.0000
0.7500,3,1,0,37.46758617,126.45009287,2452.1480,0,-0.0001,-0.0000
0.7600,1,1,0,37.46776604,126.44990130,2450.4016,0,0.0000,-0.0000
0.7600,2,1,0,37.46772453,126.45012365,2451.7870,0,-0.0001,0.0000
0.7600,3,1,0,37.46760418,126.45009274,2452.1439,0,-0.0001,-0.0000
0.7700,1,1,0,37.46778406,126.44990117,2450.3975,0,0.0000,-0.0000
0.7700,2,1,0,37.46774254,126.45012352,2451.7829,0,-0.0001,0.0000
0.7700,3,1,0,37.46762220,126.45009262,2452.1398,0,-0.0001,-0.0000
0.7800,1,1,0,37.46780207,126.44990105,2450.3934,0,0.0000,-0.0000
0.7800,2,1,0,37.46776055,126.45012340,2451.7788,0,-0.0001,0.0000
0.7800,3,1,0,37.46764021,126.45009249,2452.1356,0,-0.0001,-0.0000
0.7900,1,1,0,37.46782008,126.44990092,2450.3893,0,0.0000,-0.0000
0.7900,2,1,0,37.46777857,126.45012327,2451.7747,0,-0.0001,0.0000
0.7900,3,1,0,37.46765822,126.45009237,2452.1315,0,-0.0001,-0.0000
0.8000,1,1,0,37.46783810,126.44990079,2450.3852,0,0.0000,-0.0000
0.8000,2,1,0,37.46779658,126.45012315,2451.7706,0,-0.0001,0.0000
0.8000,3,1,0,37.46767624,126.45009224,2452.1274,0,-0.0001,-0.0000
0.8100,1,1,0,37.46785611,126.44990067,2450.3811,0,0.0000,-0.0000
0.8100,2,1,0,37.46781459,126.45012302,2451.7665,0,-0.0001,0.0000
0.8100,3,1,0,37.46769425,126.45009211,2452.1233,0,-0.0001,-0.0000
0.8200,1,1,0,37.46787412,126.44990054,2450.3770,0,0.0000,-0.0000
0.8200,2,1,0,37.46783260,126.45012289,2451.7624,0,-0.0001,0.0000
0.8200,3,1,0,37.46771226,126.45009199,2452.1192,0,-0.0001,-0.0000
0.8300,1,1,0,37.46789213,126.44990041,2450.3729,0,0.0000,-0.0000
0.8300,2,1,0,37.46785062,126.45012277,2451.7583,0,-0.0001,0.0000
0.8300,3,1,0,37.46773028,126.45009186,2452.1151,0,-0.0001,-0.0000
0.8400,1,1,0,37.46791015,126.44990029,2450.3688,0,0.0000,-0.0000
0.8400,2,1,0,37.46786863,126.45012264,2451.7542,0,-0.0001,0.0000
0.8400,3,1,0,37.46774829,126.45009173,2452.1110,0,-0.0001,-0.0000
0.8500,1,1,0,37.46792816,126.44990016,2450.3647,0,0.0000,-0.0000
0.8500,2,1,0,37.46788664,126.45012251,2451.7501,0,-0.0001,0.0000
0.8500,3,1,0,37.46776630,126.45009161,2452.1069,0,-0.0001,-0.0000
0.8600,1,1,0,37.46794617,126.44990004,2450.3606,0,0.0000,-0.0000
0.8600,2,1,0,37.46790466,126.45012239,2451.7460,0,-0.0001,0.0000
0.8600,3,1,0,37.46778431,126.45009148,2452.1028,0,-0.0001,-0.0000
0.8700,1,1,0,37.46796419,126.44989991,2450.3565,0,0.0000,-0.0000
0.8700,2,1,0,37.46792267,126.45012226,2451.7419,0,-0.0001,0.0000
0.8700,3,1,0,37.46780233,126.45009136,2452.0987,0,-0.0001,-0.0000
0.8800,1,1,0,37.46798220,126.44989978,2450.3525,0,0.0000,-0.0000
0.8800,2,1,0,37.46794068,126.45012214,2451.7378,0,-0.0001,0.0000
0.8800,3,1,0,37.46782034,126.45009123,2452.0946,0,-0.0001,-0.0000
0.8900,1,1,0,37.46800021,126.44989966,2450.3484,0,0.0000,-0.0000
0.8900,2,1,0,37.46795870,126.45012201,2451.7337,0,-0.0001,0.0000
0.8900,3,1,0,37.46783835,126.45009110,2452.0905,0,-0.0001,-0.0000
0.9000,1,1,0,37.46801823,126.44989953,2450.3443,0,0.0000,-0.0000
0.9000,2,1,0,37.46797671,126.45012188,2451.7296,0,-0.0001,0.0000
0.9000,3,1,0,37.46785637,126.45009098,2452.0864,0,-0.0001,-0.0000
0.9100,1,1,0,37.46803624,126.44989940,2450.3402,0,0.0000,-0.0000
0.9100,2,1,0,37.46799472,126.45012176,2451.7255,0,-0.0001,0.0000
0.9100,3,1,0,37.46787438,126.45009085,2452.0823,0,-0.0001,-0.0000
0.9200,1,1,0,37.46805425,126.44989928,2450.3361,0,0.0000,-0.0000
0.9200,2,1,0,37.46801273,126.45012163,2451.7214,0,-0.0001,0.0000
0.9200,3,1,0,37.46789239,126.45009072,2452.0782,0,-0.0001,-0.0000
0.9300,1,1,0,37.46807226,126.44989915,2450.3320,0,0.0000,-0.0000
0.9300,2,1,0,37.46803075,126.45012150,2451.7173,0,-0.0001,0.0000
0.9300,3,1,0,37.46791040,126.45009060,2452.0741,0,-0.0001,-0.0000
0.9400,1,1,0,37.46809028,126.44989902,2450.3279,0,0.0000,-0.0000
0.9400,2,1,0,37.46804876,126.45012138,2451.7132,0,-0.0001,0.0000
0.9400,3,1,0,37.46792842,126.45009047,2452.0700,0,-0.0001,-0.0000
0.9500,1,1,0,37.46810829,126.44989890,2450.3238,0,0.0000,-0.0000
0.9500,2,1,0,37.46806677,126.45012125,2451.7091,0,-0.0001,0.0000
0.9500,3,1,0,37.46794643,126.45009035,2452.0659,0,-0.0001,-0.0000
0.9600,1,1,0,37.46812630,126.44989877,2450.3197,0,0.0000,-0.0000
0.9600,2,1,0,37.46808479,126.45012113,2451.7050,0,-0.0001,0.0000
0.9600,3,1,0,37.46796444,126.45009022,2452.0618,0,-0.0001,-0.0000
0.9700,1,1,0,37.46814432,126.44989865,2450.3157,0,0.0000,-0.0000
0.9700,2,1,0,37.46810280,126.45012100,2451.7009,0,-0.0001,0.0000
0.9700,3,1,0,37.46798246,126.45009009,2452.0577,0,-0.0001,-0.0000
0.9800,1,1,0,37.46816233,126.44989852,2450.3116,0,0.0000,-0.0000
0.9800,2,1,0,37.46812081,126.45012087,2451.6968,0,-0.0001,0.0000
0.9800,3,1,0,37.46800047,126.45008997,2452.0536,0,-0.0001,-0.0000
0.9900,1,1,0,37.46818034,126.44989839,2450.3075,0,0.0000,-0.0000
0.9900,2,1,0,37.46813882,126.45012075,2451.6927,0,-0.0001,0.0000
0.9900,3,1,0,37.46801848,126.45008984,2452.0495,0,-0.0001,-0.0000
1.0000,1,1,0,37.46819836,126.44989827,2450.3034,0,0.0000,-0.0000
1.0000,2,1,0,37.46815684,126.45012062,2451.6887,0,-0.0001,0.0000
1.0000,3,1,0,37.46803650,126.45008971,2452.0454,0,-0.0001,-0.0000
1.0100,1,1,0,37.46821637,126.44989814,2450.2993,0,0.0000,-0.0000
1.0100,2,1,0,37.46817485,126.45012049,2451.6846,0,-0.0001,0.0000
1.0100,3,1,0,37.46805451,126.45008959,2452.0413,0,-0.0001,-0.0000
1.0200,1,1,0,37.46823438,126.44989801,2450.2952,0,0.0000,-0.0000
1.0200,2,1,0,37.46819286,126.45012037,2451.6805,0,-0.0001,0.0000
1.0200,3,1,0,37.46807252,126.45008946,2452.0372,0,-0.0001,-0.0000
1.0300,1,1,0,37.46825239,126.44989789,2450.2912,0,0.0000,-0.0000
1.0300,2,1,0,37.46821088,126.45012024,2451.6764,0,-0.0001,0.0000
1.0300,3,1,0,37.46809053,126.45008934,2452.0331,0,-0.0001,-0.0000
1.0400,1,1,0,37.46827041,126.44989776,2450.2871,0,0.0000,-0.0000
1.0400,2,1,0,37.46822889,126.45012012,2451.6723,0,-0.0001,0.0000
1.0400,3,1,0,37.46810855,126.45008921,2452.0290,0,-0.0001,-0.0000
1.0500,1,1,0,37.46828842,126.44989764,2450.2830,0,0.0000,-0.0000
1.0500,2,1,0,37.46824690,126.45011999,2451.6682,0,-0.0001,0.0000
1.0500,3,1,0,37.46812656,126.45008908,2452.0250,0,-0.0001,-0.0000
1.0600,1,1,0,37.46830643,126.44989751,2450.2789,0,0.0000,-0.0000
1.0600,2,1,0,37.46826492,126.45011986,2451.6641,0,-0.0001,0.0000
1.0600,3,1,0,37.46814457,126.45008896,2452.0209,0,-0.0001,-0.0000
1.0700,1,1,0,37.46832445,126.44989738,2450.2748,0,0.0000,-0.0000
1.0700,2,1,0,37.46828293,126.45011974,2451.6600,0,-0.0001,0.0000
1.0700,3,1,0,37.46816259,126.45008883,2452.0168,0,-0.0001,-0.0000
1.0800,1,1,0,37.46834246,126.44989726,2450.2708,0,0.0000,-0.0000
1.0800,2,1,0,37.46830094,126.45011961,2451.6559,0,-0.0001,0.0000
1.0800,3,1,0,37.46818060,126.45008870,2452.0127,0,-0.0001,-0.0000
1.0900,1,1,0,37.46836047,126.44989713,2450.2667,0,0.0000,-0.0000
1.0900,2,1,0,37.46831895,126.45011948,2451.6519,0,-0.0001,0.0000
1.0900,3,1,0,37.46819861,126.45008858,2452.0086,0,-0.0001,-0.0000
1.1000,1,1,0,37.46837848,126.44989700,2450.2626,0,0.0000,-0.0000
1.1000,2,1,0,37.46833697,126.45011936,2451.6478,0,-0.0001,0.0000
1.1000,3,1,0,37.46821662,126.45008845,2452.0045,0,-0.0001,-0.0000
1.1100,1,1,0,37.46839650,126.44989688,2450.2585,0,0.0000,-0.0000
1.1100,2,1,0,37.46835498,126.45011923,2451.6437,0,-0.0001,0.0000
1.1100,3,1,0,37.46823464,126.45008833,2452.0004,0,-0.0001,-0.0000
1.1200,1,1,0,37.46841451,126.44989675,2450.2545,0,0.0000,-0.0000
1.1200,2,1,0,37.46837299,126.45011911,2451.6396,0,-0.0001,0.0000
1.1200,3,1,0,37.46825265,126.45008820,2451.9963,0,-0.0001,-0.0000
1.1300,1,1,0,37.46843252,126.44989662,2450.2504,0,0.0000,-0.0000
1.1300,2,1,0,37.46839101,126.45011898,2451.6355,0,-0.0001,0.0000
1.1300,3,1,0,37.46827066,126.45008807,2451.9922,0,-0.0001,-0.0000
1.1400,1,1,0,37.46845054,126.44989650,2450.2463,0,0.0000,-0.0000
1.1400,2,1,0,37.46840902,126.45011885,2451.6314,0,-0.0001,0.0000
1.1400,3,1,0,37.46828868,126.45008795,2451.9882,0,-0.0001,-0.0000
1.1500,1,1,0,37.46846855,126.44989637,2450.2422,0,0.0000,-0.0000
1.1500,2,1,0,37.46842703,126.45011873,2451.6274,0,-0.0001,0.0000
1.1500,3,1,0,37.46830669,126.45008782,2451.9841,0,-0.0001,-0.0000
1.1600,1,1,0,37.46848656,126.44989625,2450.2382,0,0.0000,-0.0000
1.1600,2,1,0,37.46844505,126.45011860,2451.6233,0,-0.0001,0.0000
1.1600,3,1,0,37.46832470,126.45008769,2451.9800,0,-0.0001,-0.0000
1.1700,1,1,0,37.46850458,126.44989612,2450.2341,0,0.0000,-0.0000
1.1700,2,1,0,37.46846306,126.45011847,2451.6192,0,-0.0001,0.0000
1.1700,3,1,0,37.46834272,126.45008757,2451.9759,0,-0.0001,-0.0000
1.1800,1,1,0,37.46852259,126.44989599,2450.2300,0,0.0000,-0.0000
1.1800,2,1,0,37.46848107,126.45011835,2451.6151,0,-0.0001,0.0000
1.1800,3,1,0,37.46836073,126.45008744,2451.9718,0,-0.0001,-0.0000
1.1900,1,1,0,37.46854060,126.44989587,2450.2259,0,0.0000,-0.0000
1.1900,2,1,0,37.46849908,126.45011822,2451.6110,0,-0.0001,0.0000
1.1900,3,1,0,37.46837874,126.45008732,2451.9677,0,-0.0001,-0.0000
1.2000,1,1,0,37.46855861,126.44989574,2450.2219,0,0.0000,-0.0000
1.2000,2,1,0,37.46851710,126.45011810,2451.6070,0,-0.0001,0.0000
1.2000,3,1,0,37.46839675,126.45008719,2451.9637,0,-0.0001,-0.0000
1.2100,1,1,0,37.46857663,126.44989561,2450.2178,0,0.0000,-0.0000
1.2100,2,1,0,37.46853511,126.45011797,2451.6029,0,-0.0001,0.0000
1.2100,3,1,0,37.46841477,126.45008706,2451.9596,0,-0.0001,-0.0000
1.2200,1,1,0,37.46859464,126.44989549,2450.2137,0,0.0000,-0.0000
1.2200,2,1,0,37.46855312,126.45011784,2451.5988,0,-0.0001,0.0000
1.2200,3,1,0,37.46843278,126.45008694,2451.9555,0,-0.0001,-0.0000
1.2300,1,1,0,37.46861265,126.44989536,2450.2097,0,0.0000,-0.0000
1.2300,2,1,0,37.46857114,126.45011772,2451.5947,0,-0.0001,0.0000
1.2300,3,1,0,37.46845079,126.45008681,2451.9514,0,-0.0001,-0.0000
1.2400,1,1,0,37.46863067,126.44989524,2450.2056,0,0.0000,-0.0000
1.2400,2,1,0,37.46858915,126.45011759,2451.5906,0,-0.0001,0.0000
1.2400,3,1,0,37.46846881,126.45008668,2451.9473,0,-0.0001,-0.0000
1.2500,1,1,0,37.46864868,126.44989511,2450.2015,0,0.0000,-0.0000
1.2500,2,1,0,37.46860716,126.45011746,2451.5866,0,-0.0001,0.0000
1.2500,3,1,0,37.46848682,126.45008656,2451.9433,0,-0.0001,-0.0000
1.2600,1,1,0,37.46866669,126.44989498,2450.1975,0,0.0000,-0.0000
1.2600,2,1,0,37.46862517,126.45011734,2451.5825,0,-0.0001,0.0000
1.2600,3,1,0,37.46850483,126.45008643,2451.9392,0,-0.0001,-0.0000
1.2700,1,1,0,37.46868470,126.44989486,2450.1934,0,0.0000,-0.0000
1.2700,2,1,0,37.46864319,126.45011721,2451.5784,0,-0.0001,0.0000
1.2700,3,1,0,37.46852285,126.45008631,2451.9351,0,-0.0001,-0.0000
1.2800,1,1,0,37.46870272,126.44989473,2450.1893,0,0.0000,-0.0000
1.2800,2,1,0,37.46866120,126.45011708,2451.5743,0,-0.0001,0.0000
1.2800,3,1,0,37.46854086,126.45008618,2451.9310,0,-0.0001,-0.0000
1.2900,1,1,0,37.46872073,126.44989460,2450.1853,0,0.0000,-0.0000
1.2900,2,1,0,37.46867921,126.45011696,2451.5703,0,-0.0001,0.0000
1.2900,3,1,0,37.46855887,126.45008605,2451.9269,0,-0.0001,-0.0000
1.3000,1,1,0,37.46873874,126.44989448,2450.1812,0,0.0000,-0.0000
1.3000,2,1,0,37.46869723,126.45011683,2451.5662,0,-0.0001,0.0000
1.3000,3,1,0,37.46857688,126.45008593,2451.9229,0,-0.0001,-0.0000
1.3100,1,1,0,37.46875676,126.44989435,2450.1771,0,0.0000,-0.0000
1.3100,2,1,0,37.46871524,126.45011671,2451.5621,0,-0.0001,0.0000
1.3100,3,1,0,37.46859490,126.45008580,2451.9188,0,-0.0001,-0.0000
1.3200,1,1,0,37.46877477,126.44989422,2450.1731,0,0.0000,-0.0000
1.3200,2,1,0,37.46873325,126.45011658,2451.5581,0,-0.0001,0.0000
1.3200,3,1,0,37.46861291,126.45008567,2451.9147,0,-0.0001,-0.0000
1.3300,1,1,0,37.46879278,126.44989410,2450.1690,0,0.0000,-0.0000
1.3300,2,1,0,37.46875127,126.45011645,2451.5540,0,-0.0001,0.0000
1.3300,3,1,0,37.46863092,126.45008555,2451.9106,0,-0.0001,-0.0000
1.3400,1,1,0,37.46881080,126.44989397,2450.1649,0,0.0000,-0.0000
1.3400,2,1,0,37.46876928,126.45011633,2451.5499,0,-0.0001,0.0000
1.3400,3,1,0,37.46864894,126.45008542,2451.9066,0,-0.0001,-0.0000
1.3500,1,1,0,37.46882881,126.44989385,2450.1609,0,0.0000,-0.0000
1.3500,2,1,0,37.46878729,126.45011620,2451.5458,0,-0.0001,0.0000
1.3500,3,1,0,37.46866695,126.45008529,2451.9025,0,-0.0001,-0.0000
1.3600,1,1,0,37.46884682,126.44989372,2450.1568,0,0.0000,-0.0000
1.3600,2,1,0,37.46880530,126.45011607,2451.5418,0,-0.0001,0.0000
1.3600,3,1,0,37.46868496,126.45008517,2451.8984,0,-0.0001,-0.0000
1.3700,1,1,0,37.46886483,126.44989359,2450.1528,0,0.0000,-0.0000
1.3700,2,1,0,37.46882332,126.45011595,2451.5377,0,-0.0001,0.0000
1.3700,3,1,0,37.46870297,126.45008504,2451.8944,0,-0.0001,-0.0000
1.3800,1,1,0,37.46888285,126.44989347,2450.1487,0,0.0000,-0.0000
1.3800,2,1,0,37.46884133,126.45011582,2451.5336,0,-0.0001,0.0000
1.3800,3,1,0,37.46872099,126.45008492,2451.8903,0,-0.0001,-0.0000
1.3900,1,1,0,37.46890086,126.44989334,2450.1446,0,0.0000,-0.0000
1.3900,2,1,0,37.46885934,126.45011570,2451.5296,0,-0.0001,0.0000
1.3900,3,1,0,37.46873900,126.45008479,2451.8862,0,-0.0001,-0.0000
1.4000,1,1,0,37.46891887,126.44989321,2450.1406,0,0.0000,-0.0000
1.4000,2,1,0,37.46887736,126.45011557,2451.5255,0,-0.0001,0.0000
1.4000,3,1,0,37.46875701,126.45008466,2451.8821,0,-0.0001,-0.0000
1.4100,1,1,0,37.46893689,126.44989309,2450.1365,0,0.0000,-0.0000
1.4100,2,1,0,37.46889537,126.45011544,2451.5214,0,-0.0001,0.0000
1.4100,3,1,0,37.46877503,126.45008454,2451.8781,0,-0.0001,-0.0000
1.4200,1,1,0,37.46895490,126.44989296,2450.1325,0,0.0000,-0.0000
1.4200,2,1,0,37.46891338,126.45011532,2451.5174,0,-0.0001,0.0000
1.4200,3,1,0,37.46879304,126.45008441,2451.8740,0,-0.0001,-0.0000
1.4300,1,1,0,37.46897291,126.44989284,2450.1284,0,0.0000,-0.0000
1.4300,2,1,0,37.46893139,126.45011519,2451.5133,0,-0.0001,0.0000
1.4300,3,1,0,37.46881105,126.45008428,2451.8699,0,-0.0001,-0.0000
1.4400,1,1,0,37.46899093,126.44989271,2450.1243,0,0.0000,-0.0000
1.4400,2,1,0,37.46894941,126.45011506,2451.5093,0,-0.0001,0.0000
1.4400,3,1,0,37.46882907,126.45008416,2451.8659,0,-0.0001,-0.0000
1.4500,1,1,0,37.46900894,126.44989258,2450.1203,0,0.0000,-0.0000
1.4500,2,1,0,37.46896742,126.45011494,2451.5052,0,-0.0001,0.0000
1.4500,3,1,0,37.46884708,126.45008403,2451.8618,0,-0.0001,-0.0000
1.4600,1,1,0,37.46902695,126.44989246,2450.1162,0,0.0000,-0.0000
1.4600,2,1,0,37.46898543,126.45011481,2451.5011,0,-0.0001,0.0000
1.4600,3,1,0,37.46886509,126.45008391,2451.8577,0,-0.0001,-0.0000
1.4700,1,1,0,37.46904496,126.44989233,2450.1122,0,0.0000,-0.0000
1.4700,2,1,0,37.46900345,126.45011469,2451.4971,0,-0.0001,0.0000
1.4700,3,1,0,37.46888310,126.45008378,2451.8537,0,-0.0001,-0.0000
1.4800,1,1,0,37.46906298,126.44989220,2450.1081,0,0.0000,-0.0000
1.4800,2,1,0,37.46902146,126.45011456,2451.4930,0,-0.0001,0.0000
1.4800,3,1,0,37.46890112,126.45008365,2451.8496,0,-0.0001,-0.0000
1.4900,1,1,0,37.46908099,126.44989208,2450.1041,0,0.0000,-0.0000
1.4900,2,1,0,37.46903947,126.45011443,2451.4889,0,-0.0001,0.0000
1.4900,3,1,0,37.46891913,126.45008353,2451.8455,0,-0.0001,-0.0000
1.5000,1,1,0,37.46909900,126.44989195,2450.1000,0,0.0000,-0.0000
1.5000,2,1,0,37.46905749,126.45011431,2451.4849,0,-0.0001,0.0000
1.5000,3,1,0,37.46893714,126.45008340,2451.8415,0,-0.0001,-0.0000
1.5100,1,1,0,37.46911702,126.44989182,2450.0960,0,0.0000,-0.0000
1.5100,2,1,0,37.46907550,126.45011418,2451.4808,0,-0.0001,0.0000
1.5100,3,1,0,37.46895516,126.45008327,2451.8374,0,-0.0001,-0.0000
1.5200,1,1,0,37.46913503,126.44989170,2450.0919,0,0.0000,-0.0000
1.5200,2,1,0,37.46909351,126.45011405,2451.4768,0,-0.0001,0.0000
1.5200,3,1,0,37.46897317,126.45008315,2451.8334,0,-0.0001,-0.0000
1.5300,1,1,0,37.46915304,126.44989157,2450.0879,0,0.0000,-0.0000
1.5300,2,1,0,37.46911152,126.45011393,2451.4727,0,-0.0001,0.0000
1.5300,3,1,0,37.46899118,126.45008302,2451.8293,0,-0.0001,-0.0000
1.5400,1,1,0,37.46917105,126.44989145,2450.0838,0,0.0000,-0.0000
1.5400,2,1,0,37.46912954,126.45011380,2451.4686,0,-0.0001,0.0000
1.5400,3,1,0,37.46900919,126.45008290,2451.8252,0,-0.0001,-0.0000
1.5500,1,1,0,37.46918907,126.44989132,2450.0798,0,0.0000,-0.0000
1.5500,2,1,0,37.46914755,126.45011368,2451.4646,0,-0.0001,0.0000
1.5500,3,1,0,37.46902721,126.45008277,2451.8212,0,-0.0001,-0.0000
1.5600,1,1,0,37.46920708,126.44989119,2450.0757,0,0.0000,-0.0000
1.5600,2,1,0,37.46916556,126.45011355,2451.4605,0,-0.0001,0.0000
1.5600,3,1,0,37.46904522,126.45008264,2451.8171,0,-0.0001,-0.0000
1.5700,1,1,0,37.46922509,126.44989107,2450.0717,0,0.0000,-0.0000
1.5700,2,1,0,37.46918358,126.45011342,2451.4565,0,-0.0001,0.0000
1.5700,3,1,0,37.46906323,126.45008252,2451.8131,0,-0.0001,-0.0000
1.5800,1,1,0,37.46924311,126.44989094,2450.0676,0,0.0000,-0.0000
1.5800,2,1,0,37.46920159,126.45011330,2451.4524,0,-0.0001,0.0000
1.5800,3,1,0,37.46908125,126.45008239,2451.8090,0,-0.0001,-0.0000
1.5900,1,1,0,37.46926112,126.44989081,2450.0636,0,0.0000,-0.0000
1.5900,2,1,0,37.46921960,126.45011317,2451.4484,0,-0.0001,0.0000
1.5900,3,1,0,37.46909926,126.45008226,2451.8049,0,-0.0001,-0.0000
1.6000,1,1,0,37.46927913,126.44989069,2450.0595,0,0.0000,-0.0000
1.6000,2,1,0,37.46923762,126.45011304,2451.4443,0,-0.0001,0.0000
1.6000,3,1,0,37.46911727,126.45008214,2451.8009,0,-0.0001,-0.0000
1.6100,1,1,0,37.46929715,126.44989056,2450.0555,0,0.0000,-0.0000
1.6100,2,1,0,37.46925563,126.45011292,2451.4403,0,-0.0001,0.0000
1.6100,3,1,0,37.46913529,126.45008201,2451.7968,0,-0.0001,-0.0000
1.6200,1,1,0,37.46931516,126.44989043,2450.0514,0,0.0000,-0.0000
1.6200,2,1,0,37.46927364,126.45011279,2451.4362,0,-0.0001,0.0000
1.6200,3,1,0,37.46915330,126.45008189,2451.7928,0,-0.0001,-0.0000
1.6300,1,1,0,37.46933317,126.44989031,2450.0474,0,0.0000,-0.0000
1.6300,2,1,0,37.46929165,126.45011267,2451.4322,0,-0.0001,0.0000
1.6300,3,1,0,37.46917131,126.45008176,2451.7887,0,-0.0001,-0.0000
1.6400,1,1,0,37.46935118,126.44989018,2450.0434,0,0.0000,-0.0000
1.6400,2,1,0,37.46930967,126.45011254,2451.4281,0,-0.0001,0.0000
1.6400,3,1,0,37.46918932,126.45008163,2451.7847,0,-0.0001,-0.0000
1.6500,1,1,0,37.46936920,126.44989006,2450.0393,0,0.0000,-0.0000
1.6500,2,1,0,37.46932768,126.45011241,2451.4241,0,-0.0001,0.0000
1.6500,3,1,0,37.46920734,126.45008151,2451.7806,0,-0.0001,-0.0000
1.6600,1,1,0,37.46938721,126.44988993,2450.0353,0,0.0000,-0.0000
1.6600,2,1,0,37.46934569,126.45011229,2451.4200,0,-0.0001,0.0000
1.6600,3,1,0,37.46922535,126.45008138,2451.7766,0,-0.0001,-0.0000
1.6700,1,1,0,37.46940522,126.44988980,2450.0312,0,0.0000,-0.0000
1.6700,2,1,0,37.46936371,126.45011216,2451.4160,0,-0.0001,0.0000
1.6700,3,1,0,37.46924336,126.45008125,2451.7725,0,-0.0001,-0.0000
1.6800,1,1,0,37.46942324,126.44988968,2450.0272,0,0.0000,-0.0000
1.6800,2,1,0,37.46938172,126.45011203,2451.4119,0,-0.0001,0.0000
1.6800,3,1,0,37.46926138,126.45008113,2451.7684,0,-0.0001,-0.0000
1.6900,1,1,0,37.46944125,126.44988955,2450.0231,0,0.0000,-0.0000
1.6900,2,1,0,37.46939973,126.45011191,2451.4079,0,-0.0001,0.0000
1.6900,3,1,0,37.46927939,126.45008100,2451.7644,0,-0.0001,-0.0000
1.7000,1,1,0,37.46945926,126.44988942,2450.0191,0,0.0000,-0.0000
1.7000,2,1,0,37.46941774,126.45011178,2451.4038,0,-0.0001,0.0000
1.7000,3,1,0,37.46929740,126.45008088,2451.7603,0,-0.0001,-0.0000
1.7100,1,1,0,37.46947728,126.44988930,2450.0151,0,0.0000,-0.0000
1.7100,2,1,0,37.46943576,126.45011166,2451.3998,0,-0.0001,0.0000
1.7100,3,1,0,37.46931542,126.45008075,2451.7563,0,-0.0001,-0.0000
1.7200,1,1,0,37.46949529,126.44988917,2450.0110,0,0.0000,-0.0000
1.7200,2,1,0,37.46945377,126.45011153,2451.3957,0,-0.0001,0.0000
1.7200,3,1,0,37.46933343,126.45008062,2451.7522,0,-0.0001,-0.0000
1.7300,1,1,0,37.46951330,126.44988905,2450.0070,0,0.0000,-0.0000
1.7300,2,1,0,37.46947178,126.45011140,2451.3917,0,-0.0001,0.0000
1.7300,3,1,0,37.46935144,126.45008050,2451.7482,0,-0.0001,-0.0000
1.7400,1,1,0,37.46953131,126.44988892,2450.0030,0,0.0000,-0.0000
1.7400,2,1,0,37.46948980,126.45011128,2451.3876,0,-0.0001,0.0000
1.7400,3,1,0,37.46936945,126.45008037,2451.7441,0,-0.0001,-0.0000
1.7500,1,1,0,37.46954933,126.44988879,2449.9989,0,0.0000,-0.0000
1.7500,2,1,0,37.46950781,126.45011115,2451.3836,0,-0.0001,0.0000
1.7500,3,1,0,37.46938747,126.45008024,2451.7401,0,-0.0001,-0.0000
1.7600,1,1,0,37.46956734,126.44988867,2449.9949,0,0.0000,-0.0000
1.7600,2,1,0,37.46952582,126.45011102,2451.3795,0,-0.0001,0.0000
1.7600,3,1,0,37.46940548,126.45008012,2451.7361,0,-0.0001,-0.0000
1.7700,1,1,0,37.46958535,126.44988854,2449.9908,0,0.0000,-0.0000
1.7700,2,1,0,37.46954384,126.45011090,2451.3755,0,-0.0001,0.0000
1.7700,3,1,0,37.46942349,126.45007999,2451.7320,0,-0.0001,-0.0000
1.7800,1,1,0,37.46960337,126.44988841,2449.9868,0,0.0000,-0.0000
1.7800,2,1,0,37.46956185,126.45011077,2451.3715,0,-0.0001,0.0000
1.7800,3,1,0,37.46944151,126.45007986,2451.7280,0,-0.0001,-0.0000
1.7900,1,1,0,37.46962138,126.44988829,2449.9828,0,0.0000,-0.0000
1.7900,2,1,0,37.46957986,126.45011065,2451.3674,0,-0.0001,0.0000
1.7900,3,1,0,37.46945952,126.45007974,2451.7239,0,-0.0001,-0.0000
1.8000,1,1,0,37.46963939,126.44988816,2449.9787,0,0.0000,-0.0000
1.8000,2,1,0,37.46959787,126.45011052,2451.3634,0,-0.0001,0.0000
1.8000,3,1,0,37.46947753,126.45007961,2451.7199,0,-0.0001,-0.0000
1.8100,1,1,0,37.46965740,126.44988803,2449.9747,0,0.0000,-0.0000
1.8100,2,1,0,37.46961589,126.45011039,2451.3593,0,-0.0001,0.0000
1.8100,3,1,0,37.46949554,126.45007949,2451.7158,0,-0.0001,-0.0000
1.8200,1,1,0,37.46967542,126.44988791,2449.9707,0,0.0000,-0.0000
1.8200,2,1,0,37.46963390,126.45011027,2451.3553,0,-0.0001,0.0000
1.8200,3,1,0,37.46951356,126.45007936,2451.7118,0,-0.0001,-0.0000
1.8300,1,1,0,37.46969343,126.44988778,2449.9666,0,0.0000,-0.0000
1.8300,2,1,0,37.46965191,126.45011014,2451.3513,0,-0.0001,0.0000
1.8300,3,1,0,37.46953157,126.45007923,2451.7077,0,-0.0001,-0.0000
1.8400,1,1,0,37.46971144,126.44988766,2449.9626,0,0.0000,-0.0000
1.8400,2,1,0,37.46966993,126.45011001,2451.3472,0,-0.0001,0.0000
1.8400,3,1,0,37.46954958,126.45007911,2451.7037,0,-0.0001,-0.0000
1.8500,1,1,0,37.46972946,126.44988753,2449.9586,0,0.0000,-0.0000
1.8500,2,1,0,37.46968794,126.45010989,2451.3432,0,-0.0001,0.0000
1.8500,3,1,0,37.46956760,126.45007898,2451.6997,0,-0.0001,-0.0000
1.8600,1,1,0,37.46974747,126.44988740,2449.9546,0,0.0000,-0.0000
1.8600,2,1,0,37.46970595,126.45010976,2451.3391,0,-0.0001,0.0000
1.8600,3,1,0,37.46958561,126.45007885,2451.6956,0,-0.0001,-0.0000
1.8700,1,1,0,37.46976548,126.44988728,2449.9505,0,0.0000,-0.0000
1.8700,2,1,0,37.46972396,126.45010963,2451.3351,0,-0.0001,0.0000
1.8700,3,1,0,37.46960362,126.45007873,2451.6916,0,-0.0001,-0.0000
1.8800,1,1,0,37.46978350,126.44988715,2449.9465,0,0.0000,-0.0000
1.8800,2,1,0,37.46974198,126.45010951,2451.3311,0,-0.0001,0.0000
1.8800,3,1,0,37.46962164,126.45007860,2451.6875,0,-0.0001,-0.0000
1.8900,1,1,0,37.46980151,126.44988702,2449.9425,0,0.0000,-0.0000
1.8900,2,1,0,37.46975999,126.45010938,2451.3270,0,-0.0001,0.0000
1.8900,3,1,0,37.46963965,126.45007848,2451.6835,0,-0.0001,-0.0000
1.9000,1,1,0,37.46981952,126.44988690,2449.9384,0,0.0000,-0.0000
1.9000,2,1,0,37.46977800,126.45010926,2451.3230,0,-0.0001,0.0000
1.9000,3,1,0,37.46965766,126.45007835,2451.6795,0,-0.0001,-0.0000
1.9100,1,1,0,37.46983753,126.44988677,2449.9344,0,0.0000,-0.0000
1.9100,2,1,0,37.46979602,126.45010913,2451.3190,0,-0.0001,0.0000
1.9100,3,1,0,37.46967567,126.45007822,2451.6754,0,-0.0001,-0.0000
1.9200,1,1,0,37.46985555,126.44988665,2449.9304,0,0.0000,-0.0000
1.9200,2,1,0,37.46981403,126.45010900,2451.3149,0,-0.0001,0.0000
1.9200,3,1,0,37.46969369,126.45007810,2451.6714,0,-0.0001,-0.0000
1.9300,1,1,0,37.46987356,126.44988652,2449.9264,0,0.0000,-0.0000
1.9300,2,1,0,37.46983204,126.45010888,2451.3109,0,-0.0001,0.0000
1.9300,3,1,0,37.46971170,126.45007797,2451.6674,0,-0.0001,-0.0000
1.9400,1,1,0,37.46989157,126.44988639,2449.9223,0,0.0000,-0.0000
1.9400,2,1,0,37.46985006,126.45010875,2451.3069,0,-0.0001,0.0000
1.9400,3,1,0,37.46972971,126.45007784,2451.6633,0,-0.0001,-0.0000
1.9500,1,1,0,37.46990959,126.44988627,2449.9183,0,0.0000,-0.0000
1.9500,2,1,0,37.46986807,126.45010862,2451.3028,0,-0.0001,0.0000
1.9500,3,1,0,37.46974773,126.45007772,2451.6593,0,-0.0001,-0.0000
1.9600,1,1,0,37.46992760,126.44988614,2449.9143,0,0.0000,-0.0000
1.9600,2,1,0,37.46988608,126.45010850,2451.2988,0,-0.0001,0.0000
1.9600,3,1,0,37.46976574,126.45007759,2451.6552,0,-0.0001,-0.0000
1.9700,1,1,0,37.46994561,126.44988601,2449.9103,0,0.0000,-0.0000
1.9700,2,1,0,37.46990409,126.45010837,2451.2948,0,-0.0001,0.0000
1.9700,3,1,0,37.46978375,126.45007747,2451.6512,0,-0.0001,-0.0000
1.9800,1,1,0,37.46996362,126.44988589,2449.9062,0,0.0000,-0.0000
1.9800,2,1,0,37.46992211,126.45010825,2451.2907,0,-0.0001,0.0000
1.9800,3,1,0,37.46980176,126.45007734,2451.6472,0,-0.0001,-0.0000
1.9900,1,1,0,37.46998164,126.44988576,2449.9022,0,0.0000,-0.0000
1.9900,2,1,0,37.46994012,126.45010812,2451.2867,0,-0.0001,0.0000
1.9900,3,1,0,37.46981978,126.45007721,2451.6431,0,-0.0001,-0.0000
2.0000,1,1,0,37.46999965,126.44988563,2449.8982,0,0.0000,-0.0000
2.0000,2,1,0,37.46995813,126.45010799,2451.2827,0,-0.0001,0.0000
2.0000,3,1,0,37.46983779,126.45007709,2451.6391,0,-0.0001,-0.0000
2.0100,1,1,0,37.47001766,126.44988551,2449.8942,0,0.0000,-0.0000
2.0100,2,1,0,37.46997615,126.45010787,2451.2787,0,-0.0001,0.0000
2.0100,3,1,0,37.46985580,126.45007696,2451.6351,0,-0.0001,-0.0000
2.0200,1,1,0,37.47003568,126.44988538,2449.8902,0,0.0000,-0.0000
2.0200,2,1,0,37.46999416,126.45010774,2451.2746,0,-0.0001,0.0000
2.0200,3,1,0,37.46987382,126.45007683,2451.6311,0,-0.0001,-0.0000
2.0300,1,1,0,37.47005369,126.44988526,2449.8861,0,0.0000,-0.0000
2.0300,2,1,0,37.47001217,126.45010761,2451.2706,0,-0.0001,0.0000
2.0300,3,1,0,37.46989183,126.45007671,2451.6270,0,-0.0001,-0.0000
2.0400,1,1,0,37.47007170,126.44988513,2449.8821,0,0.0000,-0.0000
2.0400,2,1,0,37.47003018,126.45010749,2451.2666,0,-0.0001,0.0000
2.0400,3,1,0,37.46990984,126.45007658,2451.6230,0,-0.0001,-0.0000
2.0500,1,1,0,37.47008972,126.44988500,2449.8781,0,0.0000,-0.0000
2.0500,2,1,0,37.47004820,126.45010736,2451.2626,0,-0.0001,0.0000
2.0500,3,1,0,37.46992786,126.45007646,2451.6190,0,-0.0001,-0.0000
2.0600,1,1,0,37.47010773,126.44988488,2449.8741,0,0.0000,-0.0000
2.0600,2,1,0,37.47006621,126.45010724,2451.2585,0,-0.0001,0.0000
2.0600,3,1,0,37.46994587,126.45007633,2451.6149,0,-0.0001,-0.0000
2.0700,1,1,0,37.47012574,126.44988475,2449.8701,0,0.0000,-0.0000
2.0700,2,1,0,37.47008422,126.45010711,2451.2545,0,-0.0001,0.0000
2.0700,3,1,0,37.46996388,126.45007620,2451.6109,0,-0.0001,-0.0000
2.0800,1,1,0,37.47014375,126.44988462,2449.8661,0,0.0000,-0.0000
2.0800,2,1,0,37.47010224,126.45010698,2451.2505,0,-0.0001,0.0000
2.0800,3,1,0,37.46998189,126.45007608,2451.6069,0,-0.0001,-0.0000
2.0900,1,1,0,37.47016177,126.44988450,2449.8620,0,0.0000,-0.0000
2.0900,2,1,0,37.47012025,126.45010686,2451.2465,0,-0.0001,0.0000
2.0900,3,1,0,37.46999991,126.45007595,2451.6029,0,-0.0001,-0.0000
2.1000,1,1,0,37.47017978,126.44988437,2449.8580,0,0.0000,-0.0000
2.1000,2,1,0,37.47013826,126.45010673,2451.2424,0,-0.0001,0.0000
2.1000,3,1,0,37.47001792,126.45007582,2451.5988,0,-0.0001,-0.0000
2.1100,1,1,0,37.47019779,126.44988425,2449.8540,0,0.0000,-0.0000
2.1100,2,1,0,37.47015628,126.45010660,2451.2384,0,-0.0001,0.0000
2.1100,3,1,0,37.47003593,126.45007570,2451.5948,0,-0.0001,-0.0000
2.1200,1,1,0,37.47021581,126.44988412,2449.8500,0,0.0000,-0.0000
2.1200,2,1,0,37.47017429,126.45010648,2451.2344,0,-0.0001,0.0000
2.1200,3,1,0,37.47005395,126.45007557,2451.5908,0,-0.0001,-0.0000
2.1300,1,1,0,37.47023382,126.44988399,2449.8460,0,0.0000,-0.0000
2.1300,2,1,0,37.47019230,126.45010635,2451.2304,0,-0.0001,0.0000
2.1300,3,1,0,37.47007196,126.45007545,2451.5868,0,-0.0001,-0.0000
2.1400,1,1,0,37.47025183,126.44988387,2449.8420,0,0.0000,-0.0000
2.1400,2,1,0,37.47021031,126.45010623,2451.2264,0,-0.0001,0.0000
2.1400,3,1,0,37.47008997,126.45007532,2451.5827,0,-0.0001,-0.0000
2.1500,1,1,0,37.47026985,126.44988374,2449.8380,0,0.0000,-0.0000
2.1500,2,1,0,37.47022833,126.45010610,2451.2223,0,-0.0001,0.0000
2.1500,3,1,0,37.47010798,126.45007519,2451.5787,0,-0.0001,-0.0000
2.1600,1,1,0,37.47028786,126.44988361,2449.8340,0,0.0000,-0.0000
2.1600,2,1,0,37.47024634,126.45010597,2451.2183,0,-0.0001,0.0000
2.1600,3,1,0,37.47012600,126.45007507,2451.5747,0,-0.0001,-0.0000
2.1700,1,1,0,37.47030587,126.44988349,2449.8299,0,0.0000,-0.0000
2.1700,2,1,0,37.47026435,126.45010585,2451.2143,0,-0.0001,0.0000
2.1700,3,1,0,37.47014401,126.45007494,2451.5707,0,-0.0001,-0.0000
2.1800,1,1,0,37.47032388,126.44988336,2449.8259,0,0.0000,-0.0000
2.1800,2,1,0,37.47028237,126.45010572,2451.2103,0,-0.0001,0.0000
2.1800,3,1,0,37.47016202,126.45007481,2451.5666,0,-0.0001,-0.0000
2.1900,1,1,0,37.47034190,126.44988323,2449.8219,0,0.0000,-0.0000
2.1900,2,1,0,37.47030038,126.45010559,2451.2063,0,-0.0001,0.0000
2.1900,3,1,0,37.47018004,126.45007469,2451.5626,0,-0.0001,-0.0000
2.2000,1,1,0,37.47035991,126.44988311,2449.8179,0,0.0000,-0.0000
2.2000,2,1,0,37.47031839,126.45010547,2451.2022,0,-0.0001,0.0000
2.2000,3,1,0,37.47019805,126.45007456,2451.5586,0,-0.0001,-0.0000
2.2100,1,1,0,37.47037792,126.44988298,2449.8139,0,0.0000,-0.0000
2.2100,2,1,0,37.47033641,126.45010534,2451.1982,0,-0.0001,0.0000
2.2100,3,1,0,37.47021606,126.45007443,2451.5546,0,-0.0001,-0.0000
2.2200,1,1,0,37.47039594,126.44988286,2449.8099,0,0.0000,-0.0000
2.2200,2,1,0,37.47035442,126.45010522,2451.1942,0,-0.0001,0.0000
2.2200,3,1,0,37.47023408,126.45007431,2451.5506,0,-0.0001,-0.0000
2.2300,1,1,0,37.47041395,126.44988273,2449.8059,0,0.0000,-0.0000
2.2300,2,1,0,37.47037243,126.45010509,2451.1902,0,-0.0001,0.0000
2.2300,3,1,0,37.47025209,126.45007418,2451.5466,0,-0.0001,-0.0000
2.2400,1,1,0,37.47043196,126.44988260,2449.8019,0,0.0000,-0.0000
2.2400,2,1,0,37.47039044,126.45010496,2451.1862,0,-0.0001,0.0000
2.2400,3,1,0,37.47027010,126.45007406,2451.5425,0,-0.0001,-0.0000
2.2500,1,1,0,37.47044997,126.44988248,2449.7979,0,0.0000,-0.0000
2.2500,2,1,0,37.47040846,126.45010484,2451.1822,0,-0.0001,0.0000
2.2500,3,1,0,37.47028811,126.45007393,2451.5385,0,-0.0001,-0.0000
2.2600,1,1,0,37.47046799,126.44988235,2449.7939,0,0.0000,-0.0000
2.2600,2,1,0,37.47042647,126.45010471,2451.1782,0,-0.0001,0.0000
2.2600,3,1,0,37.47030613,126.45007380,2451.5345,0,-0.0001,-0.0000
2.2700,1,1,0,37.47048600,126.44988222,2449.7899,0,0.0000,-0.0000
2.2700,2,1,0,37.47044448,126.45010458,2451.1742,0,-0.0001,0.0000
2.2700,3,1,0,37.47032414,126.45007368,2451.5305,0,-0.0001,-0.0000
2.2800,1,1,0,37.47050401,126.44988210,2449.7859,0,0.0000,-0.0000
2.2800,2,1,0,37.47046250,126.45010446,2451.1701,0,-0.0001,0.0000
2.2800,3,1,0,37.47034215,126.45007355,2451.5265,0,-0.0001,-0.0000
2.2900,1,1,0,37.47052203,126.44988197,2449.7819,0,0.0000,-0.0000
2.2900,2,1,0,37.47048051,126.45010433,2451.1661,0,-0.0001,0.0000
2.2900,3,1,0,37.47036017,126.45007342,2451.5225,0,-0.0001,-0.0000
2.3000,1,1,0,37.47054004,126.44988184,2449.7779,0,0.0000,-0.0000
2.3000,2,1,0,37.47049852,126.45010421,2451.1621,0,-0.0001,0.0000
2.3000,3,1,0,37.47037818,126.45007330,2451.5184,0,-0.0001,-0.0000
2.3100,1,1,0,37.47055805,126.44988172,2449.7739,0,0.0000,-0.0000
2.3100,2,1,0,37.47051653,126.45010408,2451.1581,0,-0.0001,0.0000
2.3100,3,1,0,37.47039619,126.45007317,2451.5144,0,-0.0001,-0.0000
2.3200,1,1,0,37.47057607,126.44988159,2449.7699,0,0.0000,-0.0000
2.3200,2,1,0,37.47053455,126.45010395,2451.1541,0,-0.0001,0.0000
2.3200,3,1,0,37.47041421,126.45007305,2451.5104,0,-0.0001,-0.0000
2.3300,1,1,0,37.47059408,126.44988147,2449.7659,0,0.0000,-0.0000
2.3300,2,1,0,37.47055256,126.45010383,2451.1501,0,-0.0001,0.0000
2.3300,3,1,0,37.47043222,126.45007292,2451.5064,0,-0.0001,-0.0000
2.3400,1,1,0,37.47061209,126.44988134,2449.7619,0,0.0000,-0.0000
2.3400,2,1,0,37.47057057,126.45010370,2451.1461,0,-0.0001,0.0000
2.3400,3,1,0,37.47045023,126.45007279,2451.5024,0,-0.0001,-0.0000
2.3500,1,1,0,37.47063010,126.44988121,2449.7579,0,0.0000,-0.0000
2.3500,2,1,0,37.47058859,126.45010357,2451.1421,0,-0.0001,0.0000
2.3500,3,1,0,37.47046824,126.45007267,2451.4984,0,-0.0001,-0.0000
2.3600,1,1,0,37.47064812,126.44988109,2449.7539,0,0.0000,-0.0000
2.3600,2,1,0,37.47060660,126.45010345,2451.1381,0,-0.0001,0.0000
2.3600,3,1,0,37.47048626,126.45007254,2451.4944,0,-0.0001,-0.0000
2.3700,1,1,0,37.47066613,126.44988096,2449.7499,0,0.0000,-0.0000
2.3700,2,1,0,37.47062461,126.45010332,2451.1341,0,-0.0001,0.0000
2.3700,3,1,0,37.47050427,126.45007241,2451.4904,0,-0.0001,-0.0000
2.3800,1,1,0,37.47068414,126.44988083,2449.7459,0,0.0000,-0.0000
2.3800,2,1,0,37.47064263,126.45010320,2451.1301,0,-0.0001,0.0000
2.3800,3,1,0,37.47052228,126.45007229,2451.4864,0,-0.0001,-0.0000
2.3900,1,1,0,37.47070216,126.44988071,2449.7419,0,0.0000,-0.0000
2.3900,2,1,0,37.47066064,126.45010307,2451.1261,0,-0.0001,0.0000
2.3900,3,1,0,37.47054030,126.45007216,2451.4824,0,-0.0001,-0.0000
2.4000,1,1,0,37.47072017,126.44988058,2449.7379,0,0.0000,-0.0000
2.4000,2,1,0,37.47067865,126.45010294,2451.1221,0,-0.0001,0.0000
2.4000,3,1,0,37.47055831,126.45007204,2451.4784,0,-0.0001,-0.0000
2.4100,1,1,0,37.47073818,126.44988046,2449.7339,0,0.0000,-0.0000
2.4100,2,1,0,37.47069666,126.45010282,2451.1181,0,-0.0001,0.0000
2.4100,3,1,0,37.47057632,126.45007191,2451.4743,0,-0.0001,-0.0000
2.4200,1,1,0,37.47075620,126.44988033,2449.7299,0,0.0000,-0.0000
2.4200,2,1,0,37.47071468,126.45010269,2451.1141,0,-0.0001,0.0000
2.4200,3,1,0,37.47059433,126.45007178,2451.4703,0,-0.0001,-0.0000
2.4300,1,1,0,37.47077421,126.44988020,2449.7259,0,0.0000,-0.0000
2.4300,2,1,0,37.47073269,126.45010256,2451.1101,0,-0.0001,0.0000
2.4300,3,1,0,37.47061235,126.45007166,2451.4663,0,-0.0001,-0.0000
2.4400,1,1,0,37.47079222,126.44988008,2449.7219,0,0.0000,-0.0000
2.4400,2,1,0,37.47075070,126.45010244,2451.1061,0,-0.0001,0.0000
2.4400,3,1,0,37.47063036,126.45007153,2451.4623,0,-0.0001,-0.0000
2.4500,1,1,0,37.47081023,126.44987995,2449.7179,0,0.0000,-0.0000
2.4500,2,1,0,37.47076872,126.45010231,2451.1021,0,-0.0001,0.0000
2.4500,3,1,0,37.47064837,126.45007140,2451.4583,0,-0.0001,-0.0000
2.4600,1,1,0,37.47082825,126.44987982,2449.7139,0,0.0000,-0.0000
2.4600,2,1,0,37.47078673,126.45010218,2451.0981,0,-0.0001,0.0000
2.4600,3,1,0,37.47066639,126.45007128,2451.4543,0,-0.0001,-0.0000
2.4700,1,1,0,37.47084626,126.44987970,2449.7099,0,0.0000,-0.0000
2.4700,2,1,0,37.47080474,126.45010206,2451.0941,0,-0.0001,0.0000
2.4700,3,1,0,37.47068440,126.45007115,2451.4503,0,-0.0001,-0.0000
2.4800,1,1,0,37.47086427,126.44987957,2449.7059,0,0.0000,-0.0000
2.4800,2,1,0,37.47082275,126.45010193,2451.0901,0,-0.0001,0.0000
2.4800,3,1,0,37.47070241,126.45007103,2451.4463,0,-0.0001,-0.0000
2.4900,1,1,0,37.47088229,126.44987944,2449.7019,0,0.0000,-0.0000
2.4900,2,1,0,37.47084077,126.45010181,2451.0861,0,-0.0001,0.0000
2.4900,3,1,0,37.47072043,126.45007090,2451.4423,0,-0.0001,-0.0000
2.5000,1,1,0,37.47090030,126.44987932,2449.6980,0,0.0000,-0.0000
2.5000,2,1,0,37.47085878,126.45010168,2451.0821,0,-0.0001,0.0000
2.5000,3,1,0,37.47073844,126.45007077,2451.4383,0,-0.0001,-0.0000
2.5100,1,1,0,37.47091831,126.44987919,2449.6940,0,0.0000,-0.0000
2.5100,2,1,0,37.47087679,126.45010155,2451.0781,0,-0.0001,0.0000
2.5100,3,1,0,37.47075645,126.45007065,2451.4343,0,-0.0001,-0.0000
2.5200,1,1,0,37.47093632,126.44987907,2449.6900,0,0.0000,-0.0000
2.5200,2,1,0,37.47089481,126.45010143,2451.0741,0,-0.0001,0.0000
2.5200,3,1,0,37.47077446,126.45007052,2451.4303,0,-0.0001,-0.0000
2.5300,1,1,0,37.47095434,126.44987894,2449.6860,0,0.0000,-0.0000
2.5300,2,1,0,37.47091282,126.45010130,2451.0701,0,-0.0001,0.0000
2.5300,3,1,0,37.47079248,126.45007039,2451.4263,0,-0.0001,-0.0000
2.5400,1,1,0,37.47097235,126.44987881,2449.6820,0,0.0000,-0.0000
2.5400,2,1,0,37.47093083,126.45010117,2451.0661,0,-0.0001,0.0000
2.5400,3,1,0,37.47081049,126.45007027,2451.4223,0,-0.0001,-0.0000
2.5500,1,1,0,37.47099036,126.44987869,2449.6780,0,0.0000,-0.0000
2.5500,2,1,0,37.47094885,126.45010105,2451.0621,0,-0.0001,0.0000
2.5500,3,1,0,37.47082850,126.45007014,2451.4183,0,-0.0001,-0.0000
2.5600,1,1,0,37.47100838,126.44987856,2449.6740,0,0.0000,-0.0000
2.5600,2,1,0,37.47096686,126.45010092,2451.0581,0,-0.0001,0.0000
2.5600,3,1,0,37.47084652,126.45007002,2451.4143,0,-0.0001,-0.0000
2.5700,1,1,0,37.47102639,126.44987843,2449.6701,0,0.0000,-0.0000
2.5700,2,1,0,37.47098487,126.45010080,2451.0541,0,-0.0001,0.0000
2.5700,3,1,0,37.47086453,126.45006989,2451.4103,0,-0.0001,-0.0000
2.5800,1,1,0,37.47104440,126.44987831,2449.6661,0,0.0000,-0.0000
2.5800,2,1,0,37.47100288,126.45010067,2451.0501,0,-0.0001,0.0000
2.5800,3,1,0,37.47088254,126.45006976,2451.4063,0,-0.0001,-0.0000
2.5900,1,1,0,37.47106242,126.44987818,2449.6621,0,0.0000,-0.0000
2.5900,2,1,0,37.47102090,126.45010054,2451.0461,0,-0.0001,0.0000
2.5900,3,1,0,37.47090055,126.45006964,2451.4023,0,-0.0001,-0.0000
2.6000,1,1,0,37.47108043,126.44987805,2449.6581,0,0.0000,-0.0000
2.6000,2,1,0,37.47103891,126.45010042,2451.0421,0,-0.0001,0.0000
2.6000,3,1,0,37.47091857,126.45006951,2451.3984,0,-0.0001,-0.0000
2.6100,1,1,0,37.47109844,126.44987793,2449.6541,0,0.0000,-0.0000
2.6100,2,1,0,37.47105692,126.45010029,2451.0381,0,-0.0001,0.0000
2.6100,3,1,0,37.47093658,126.45006938,2451.3944,0,-0.0001,-0.0000
2.6200,1,1,0,37.47111645,126.44987780,2449.6501,0,0.0000,-0.0000
2.6200,2,1,0,37.47107494,126.45010016,2451.0341,0,-0.0001,0.0000
2.6200,3,1,0,37.47095459,126.45006926,2451.3904,0,-0.0001,-0.0000
2.6300,1,1,0,37.47113447,126.44987768,2449.6462,0,0.0000,-0.0000
2.6300,2,1,0,37.47109295,126.45010004,2451.0302,0,-0.0001,0.0000
2.6300,3,1,0,37.47097261,126.45006913,2451.3864,0,-0.0001,-0.0000
2.6400,1,1,0,37.47115248,126.44987755,2449.6422,0,0.0000,-0.0000
2.6400,2,1,0,37.47111096,126.45009991,2451.0262,0,-0.0001,0.0000
2.6400,3,1,0,37.47099062,126.45006900,2451.3824,0,-0.0001,-0.0000
2.6500,1,1,0,37.47117049,126.44987742,2449.6382,0,0.0000,-0.0000
2.6500,2,1,0,37.47112898,126.45009979,2451.0222,0,-0.0001,0.0000
2.6500,3,1,0,37.47100863,126.45006888,2451.3784,0,-0.0001,-0.0000
2.6600,1,1,0,37.47118851,126.44987730,2449.6342,0,0.0000,-0.0000
2.6600,2,1,0,37.47114699,126.45009966,2451.0182,0,-0.0001,0.0000
2.6600,3,1,0,37.47102665,126.45006875,2451.3744,0,-0.0001,-0.0000
2.6700,1,1,0,37.47120652,126.44987717,2449.6302,0,0.0000,-0.0000
2.6700,2,1,0,37.47116500,126.45009953,2451.0142,0,-0.0001,0.0000
2.6700,3,1,0,37.47104466,126.45006863,2451.3704,0,-0.0001,-0.0000
2.6800,1,1,0,37.47122453,126.44987704,2449.6263,0,0.0000,-0.0000
2.6800,2,1,0,37.47118301,126.45009941,2451.0102,0,-0.0001,0.0000
2.6800,3,1,0,37.47106267,126.45006850,2451.3664,0,-0.0001,-0.0000
2.6900,1,1,0,37.47124254,126.44987692,2449.6223,0,0.0000,-0.0000
2.6900,2,1,0,37.47120103,126.45009928,2451.0062,0,-0.0001,0.0000
2.6900,3,1,0,37.47108068,126.45006837,2451.3624,0,-0.0001,-0.0000
2.7000,1,1,0,37.47126056,126.44987679,2449.6183,0,0.0000,-0.0000
2.7000,2,1,0,37.47121904,126.45009915,2451.0022,0,-0.0001,0.0000
2.7000,3,1,0,37.47109870,126.45006825,2451.3584,0,-0.0001,-0.0000
2.7100,1,1,0,37.47127857,126.44987667,2449.6143,0,0.0000,-0.0000
2.7100,2,1,0,37.47123705,126.45009903,2450.9983,0,-0.0001,0.0000
2.7100,3,1,0,37.47111671,126.45006812,2451.3545,0,-0.0001,-0.0000
2.7200,1,1,0,37.47129658,126.44987654,2449.6104,0,0.0000,-0.0000
2.7200,2,1,0,37.47125507,126.45009890,2450.9943,0,-0.0001,0.0000
2.7200,3,1,0,37.47113472,126.45006799,2451.3505,0,-0.0001,-0.0000
2.7300,1,1,0,37.47131460,126.44987641,2449.6064,0,0.0000,-0.0000
2.7300,2,1,0,37.47127308,126.45009878,2450.9903,0,-0.0001,0.0000
2.7300,3,1,0,37.47115274,126.45006787,2451.3465,0,-0.0001,-0.0000
2.7400,1,1,0,37.47133261,126.44987629,2449.6024,0,0.0000,-0.0000
2.7400,2,1,0,37.47129109,126.45009865,2450.9863,0,-0.0001,0.0000
2.7400,3,1,0,37.47117075,126.45006774,2451.3425,0,-0.0001,-0.0000
2.7500,1,1,0,37.47135062,126.44987616,2449.5984,0,0.0000,-0.0000
2.7500,2,1,0,37.47130910,126.45009852,2450.9823,0,-0.0001,0.0000
2.7500,3,1,0,37.47118876,126.45006762,2451.3385,0,-0.0001,-0.0000
2.7600,1,1,0,37.47136864,126.44987603,2449.5945,0,0.0000,-0.0000
2.7600,2,1,0,37.47132712,126.45009840,2450.9784,0,-0.0001,0.0000
2.7600,3,1,0,37.47120677,126.45006749,2451.3345,0,-0.0001,-0.0000
2.7700,1,1,0,37.47138665,126.44987591,2449.5905,0,0.0000,-0.0000
2.7700,2,1,0,37.47134513,126.45009827,2450.9744,0,-0.0001,0.0000
2.7700,3,1,0,37.47122479,126.45006736,2451.3305,0,-0.0001,-0.0000
2.7800,1,1,0,37.47140466,126.44987578,2449.5865,0,0.0000,-0.0000
2.7800,2,1,0,37.47136314,126.45009814,2450.9704,0,-0.0001,0.0000
2.7800,3,1,0,37.47124280,126.45006724,2451.3266,0,-0.0001,-0.0000
2.7900,1,1,0,37.47142267,126.44987565,2449.5825,0,0.0000,-0.0000
2.7900,2,1,0,37.47138116,126.45009802,2450.9664,0,-0.0001,0.0000
2.7900,3,1,0,37.47126081,126.45006711,2451.3226,0,-0.0001,-0.0000
2.8000,1,1,0,37.47144069,126.44987553,2449.5786,0,0.0000,-0.0000
2.8000,2,1,0,37.47139917,126.45009789,2450.9624,0,-0.0001,0.0000
2.8000,3,1,0,37.47127883,126.45006698,2451.3186,0,-0.0001,-0.0000
2.8100,1,1,0,37.47145870,126.44987540,2449.5746,0,0.0000,-0.0000
2.8100,2,1,0,37.47141718,126.45009777,2450.9585,0,-0.0001,0.0000
2.8100,3,1,0,37.47129684,126.45006686,2451.3146,0,-0.0001,-0.0000
2.8200,1,1,0,37.47147671,126.44987528,2449.5706,0,0.0000,-0.0000
2.8200,2,1,0,37.47143520,126.45009764,2450.9545,0,-0.0001,0.0000
2.8200,3,1,0,37.47131485,126.45006673,2451.3106,0,-0.0001,-0.0000
2.8300,1,1,0,37.47149473,126.44987515,2449.5667,0,0.0000,-0.0000
2.8300,2,1,0,37.47145321,126.45009751,2450.9505,0,-0.0001,0.0000
2.8300,3,1,0,37.47133287,126.45006661,2451.3067,0,-0.0001,-0.0000
2.8400,1,1,0,37.47151274,126.44987502,2449.5627,0,0.0000,-0.0000
2.8400,2,1,0,37.47147122,126.45009739,2450.9465,0,-0.0001,0.0000
2.8400,3,1,0,37.47135088,126.45006648,2451.3027,0,-0.0001,-0.0000
2.8500,1,1,0,37.47153075,126.44987490,2449.5587,0,0.0000,-0.0000
2.8500,2,1,0,37.47148923,126.45009726,2450.9426,0,-0.0001,0.0000
2.8500,3,1,0,37.47136889,126.45006635,2451.2987,0,-0.0001,-0.0000
2.8600,1,1,0,37.47154877,126.44987477,2449.5548,0,0.0000,-0.0000
2.8600,2,1,0,37.47150725,126.45009713,2450.9386,0,-0.0001,0.0000
2.8600,3,1,0,37.47138690,126.45006623,2451.2947,0,-0.0001,-0.0000
2.8700,1,1,0,37.47156678,126.44987464,2449.5508,0,0.0000,-0.0000
2.8700,2,1,0,37.47152526,126.45009701,2450.9346,0,-0.0001,0.0000
2.8700,3,1,0,37.47140492,126.45006610,2451.2907,0,-0.0001,-0.0000
2.8800,1,1,0,37.47158479,126.44987452,2449.5468,0,0.0000,-0.0000
2.8800,2,1,0,37.47154327,126.45009688,2450.9306,0,-0.0001,0.0000
2.8800,3,1,0,37.47142293,126.45006597,2451.2868,0,-0.0001,-0.0000
2.8900,1,1,0,37.47160280,126.44987439,2449.5429,0,0.0000,-0.0000
2.8900,2,1,0,37.47156129,126.45009675,2450.9267,0,-0.0001,0.0000
2.8900,3,1,0,37.47144094,126.45006585,2451.2828,0,-0.0001,-0.0000
2.9000,1,1,0,37.47162082,126.44987427,2449.5389,0,0.0000,-0.0000
2.9000,2,1,0,37.47157930,126.45009663,2450.9227,0,-0.0001,0.0000
2.9000,3,1,0,37.47145896,126.45006572,2451.2788,0,-0.0001,-0.0000
2.9100,1,1,0,37.47163883,126.44987414,2449.5349,0,0.0000,-0.0000
2.9100,2,1,0,37.47159731,126.45009650,2450.9187,0,-0.0001,0.0000
2.9100,3,1,0,37.47147697,126.45006560,2451.2748,0,-0.0001,-0.0000
2.9200,1,1,0,37.47165684,126.44987401,2449.5310,0,0.0000,-0.0000
2.9200,2,1,0,37.47161532,126.45009638,2450.9147,0,-0.0001,0.0000
2.9200,3,1,0,37.47149498,126.45006547,2451.2709,0,-0.0001,-0.0000
2.9300,1,1,0,37.47167486,126.44987389,2449.5270,0,0.0000,-0.0000
2.9300,2,1,0,37.47163334,126.45009625,2450.9108,0,-0.0001,0.0000
2.9300,3,1,0,37.47151300,126.45006534,2451.2669,0,-0.0001,-0.0000
2.9400,1,1,0,37.47169287,126.44987376,2449.5230,0,0.0000,-0.0000
2.9400,2,1,0,37.47165135,126.45009612,2450.9068,0,-0.0001,0.0000
2.9400,3,1,0,37.47153101,126.45006522,2451.2629,0,-0.0001,-0.0000
2.9500,1,1,0,37.47171088,126.44987363,2449.5191,0,0.0000,-0.0000
2.9500,2,1,0,37.47166936,126.45009600,2450.9028,0,-0.0001,0.0000
2.9500,3,1,0,37.47154902,126.45006509,2451.2590,0,-0.0001,-0.0000
2.9600,1,1,0,37.47172889,126.44987351,2449.5151,0,0.0000,-0.0000
2.9600,2,1,0,37.47168738,126.45009587,2450.8989,0,-0.0001,0.0000
2.9600,3,1,0,37.47156703,126.45006496,2451.2550,0,-0.0001,-0.0000
2.9700,1,1,0,37.47174691,126.44987338,2449.5112,0,0.0000,-0.0000
2.9700,2,1,0,37.47170539,126.45009574,2450.8949,0,-0.0001,0.0000
2.9700,3,1,0,37.47158505,126.45006484,2451.2510,0,-0.0001,-0.0000
2.9800,1,1,0,37.47176492,126.44987325,2449.5072,0,0.0000,-0.0000
2.9800,2,1,0,37.47172340,126.45009562,2450.8909,0,-0.0001,0.0000
2.9800,3,1,0,37.47160306,126.45006471,2451.2470,0,-0.0001,-0.0000
2.9900,1,1,0,37.47178293,126.44987313,2449.5032,0,0.0000,-0.0000
2.9900,2,1,0,37.47174142,126.45009549,2450.8870,0,-0.0001,0.0000
2.9900,3,1,0,37.47162107,126.45006458,2451.2431,0,-0.0001,-0.0000
3.0000,1,1,0,37.47180095,126.44987300,2449.4993,0,0.0000,-0.0000
3.0000,2,1,0,37.47175943,126.45009537,2450.8830,0,-0.0001,0.0000
3.0000,3,1,0,37.47163909,126.45006446,2451.2391,0,-0.0001,-0.0000
3.0100,1,1,0,37.47181896,126.44987288,2449.4953,0,0.0000,-0.0000
3.0100,2,1,0,37.47177744,126.45009524,2450.8790,0,-0.0001,0.0000
3.0100,3,1,0,37.47165710,126.45006433,2451.2351,0,-0.0001,-0.0000
3.0200,1,1,0,37.47183697,126.44987275,2449.4914,0,0.0000,-0.0000
3.0200,2,1,0,37.47179545,126.45009511,2450.8751,0,-0.0001,0.0000
3.0200,3,1,0,37.47167511,126.45006421,2451.2312,0,-0.0001,-0.0000
3.0300,1,1,0,37.47185499,126.44987262,2449.4874,0,0.0000,-0.0000
3.0300,2,1,0,37.47181347,126.45009499,2450.8711,0,-0.0001,0.0000
3.0300,3,1,0,37.47169312,126.45006408,2451.2272,0,-0.0001,-0.0000
3.0400,1,1,0,37.47187300,126.44987250,2449.4835,0,0.0000,-0.0000
3.0400,2,1,0,37.47183148,126.45009486,2450.8671,0,-0.0001,0.0000
3.0400,3,1,0,37.47171114,126.45006395,2451.2232,0,-0.0001,-0.0000
3.0500,1,1,0,37.47189101,126.44987237,2449.4795,0,0.0000,-0.0000
3.0500,2,1,0,37.47184949,126.45009473,2450.8632,0,-0.0001,0.0000
3.0500,3,1,0,37.47172915,126.45006383,2451.2193,0,-0.0001,-0.0000
3.0600,1,1,0,37.47190902,126.44987224,2449.4756,0,0.0000,-0.0000
3.0600,2,1,0,37.47186751,126.45009461,2450.8592,0,-0.0001,0.0000
